[
    {
        "name": "徙巷小餐酒",
        "lat": 24.9890729,
        "lng": 121.566124,
        "score": 0.720585074626865
    },
    {
        "name": "小聚苑 cafe",
        "lat": 24.9888656,
        "lng": 121.5680104,
        "score": 0.702412574850299
    },
    {
        "name": "Bar Trace軌跡",
        "lat": 24.9890493,
        "lng": 121.5601994,
        "score": 0.674427083333333
    },
    {
        "name": "Single&Double（文山特色鐵觀音梅酒、威士忌）",
        "lat": 24.9877397,
        "lng": 121.5697731,
        "score": 0.647838139534883
    },
    {
        "name": "山羊 GOAT bistro & cafe’",
        "lat": 24.9832516,
        "lng": 121.5620239,
        "score": 0.609793167701863
    }
]